[{"name":"Petrus","type":"International","location":{"address":{"street":"Trg Modene","number":"1","city":"Novi Sad","country":"Srbija"}},"logo":"./images/restaurants/petrus.jpg","grade":[5,5],"averageGrade":5.0,"status":"OPEN"},{"name":"McDonald\u0027s","type":"Fast Food","location":{"address":{"street":"Bulevar Oslobodjenja","number":"116","city":"Novi Sad","country":"Srbija"}},"logo":"./images/restaurants/mcdonalds.jpg","grade":[5,5,3,6,3,1,3,3,3,2],"averageGrade":5.0,"status":"OPEN"},{"name":"KFC","type":"Fast Food","location":{"address":{"street":"Sremska","number":"14","city":"Novi Sad","country":"Srbija"}},"logo":"./images/restaurants/kfc.jpg","grade":[5,5,1,5,4,7,4,4,3,8,4,3,5,3,1],"averageGrade":5.0,"status":"OPEN"},{"name":"Tortilla Casa","type":"Fast Food","location":{"address":{"street":"Bulevar Oslobodjenja","number":"116","city":"Novi Sad","country":"Srbija"}},"logo":"./images/restaurants/tortillacasa.jpg","grade":[4,4,3,2,4,5],"averageGrade":5.0,"status":"CLOSED"},{"name":"Walter","type":"Traditional Food","location":{"address":{"street":"Bulevar Oslobodjenja","number":"116","city":"Novi Sad","country":"Srbija"}},"logo":"./images/restaurants/walter.jpg","grade":[1,2,5,7],"averageGrade":5.0,"status":"OPEN"},{"name":"Giros Master","type":"Fast Food","location":{"address":{"street":"Sremska","number":"3","city":"Novi Sad","country":"Srbija"}},"logo":"./images/restaurants/girosmaster.jpg","grade":[4,2,3,5,5],"averageGrade":5.0,"status":"OPEN"},{"name":"Dva Stapica","type":"Chinese Food","location":{"address":{"street":"Ilije Bircanina","number":"66","city":"Novi Sad","country":"Srbija"}},"logo":"./images/restaurants/dvastapica.jpg","grade":[4,5,4,2,5,4,4],"averageGrade":5.0,"status":"OPEN"},{"name":"Atina","type":"International","location":{"address":{"street":"Svetozara Miletica","number":"1","city":"Novi Sad","country":"Serbia"}},"logo":"./images/restaurants/Atina.jpg","grade":[],"averageGrade":5.0,"status":"OPEN"}]
